[
  {
    "name": "Woop Woop Ice Cream Store",
    "address": "Rosenthaler Str. 3, 10119 Berlin, Germany",
    "location": {
      "coordinates": { "lat": 52.5287334, "lng": 13.4019124 }
    }
  },
  {
    "name": "Cuore di Vetro",
    "address": "Max-Beer-Straße 33, 10119 Berlin, Germany",
    "location": {
      "coordinates": { "lat": 52.5266037, "lng": 13.4085516 }
    }
  },
  {
    "name": "Scoops berlin - Icecream - Cakes - Coffee",
    "address": "Novalisstraße 17, 10115 Berlin, Germany",
    "location": {
      "coordinates": { "lat": 52.52769, "lng": 13.38875 }
    }
  },
  {
    "name": "Waffel oder Becher",
    "address": "Spandauer Str. 2, 10178 Berlin, Germany",
    "location": {
      "coordinates": { "lat": 52.5208729, "lng": 13.4042781 }
    }
  },
  {
    "name": "Süsse Sünde",
    "address": "Weinbergsweg 21, 10119 Berlin, Germany",
    "location": {
      "coordinates": { "lat": 52.5311287, "lng": 13.4020839 }
    }
  },
  {
    "name": "OAK & ICE",
    "address": "Schönhauser Allee 52, 10437 Berlin, Germany",
    "location": {
      "coordinates": { "lat": 52.5428824, "lng": 13.4126635 }
    }
  },
  {
    "name": "Julian & Elisa",
    "address": "Markgrafenstraße 41, 10117 Berlin, Germany",
    "location": {
      "coordinates": { "lat": 52.51488999999999, "lng": 13.39334 }
    }
  },
  {
    "name": "Süßfein Brunnenstraße",
    "address": "Mietshaus, Brunnenstraße 156, 10115 Berlin, Germany",
    "location": {
      "coordinates": { "lat": 52.5354981, "lng": 13.3975582 }
    }
  },
  {
    "name": "Rosa Canina",
    "address": "Pasteurstraße 32, 10407 Berlin, Germany",
    "location": {
      "coordinates": { "lat": 52.5323577, "lng": 13.4357685 }
    }
  },
  {
    "name": "Gelateria italy",
    "address": "Chausseestraße 16, 10115 Berlin, Germany",
    "location": {
      "coordinates": { "lat": 52.5297251, "lng": 13.3844702 }
    }
  },
  {
    "name": "Early Bird",
    "address": "Winsstraße 68, 10405 Berlin, Germany",
    "location": {
      "coordinates": { "lat": 52.5320408, "lng": 13.423408 }
    }
  },
  {
    "name": "Bandy Brooks",
    "address": "Friedrichstraße 96, 10117 Berlin, Germany",
    "location": {
      "coordinates": { "lat": 52.5197697, "lng": 13.3886949 }
    }
  },
  {
    "name": "Lumia Gelato e Caffé",
    "address": "Galeria Kaufhof Berlin Alexanderplatz. 9 dircksenstraße, Alexanderpl. laden, 3, 10178 Berlin, Germany",
    "location": {
      "coordinates": { "lat": 52.5221897, "lng": 13.4112583 }
    }
  },
  {
    "name": "Ben & Jerry’s",
    "address": "Weinbergsweg 24, 10119 Berlin, Germany",
    "location": {
      "coordinates": { "lat": 52.530752, "lng": 13.401795 }
    }
  },
  {
    "name": "Café Gelateria La Luna",
    "address": "Rathausstraße 6, 10178 Berlin, Germany",
    "location": {
      "coordinates": { "lat": 52.5204623, "lng": 13.4108652 }
    }
  },
  {
    "name": "Eisspatz",
    "address": "Schönhauser Allee 184, 10119 Berlin, Germany",
    "location": {
      "coordinates": { "lat": 52.5296122, "lng": 13.4099049 }
    }
  },
  {
    "name": "Il Glaciale",
    "address": "Kollwitzstraße 59, 10435 Berlin, Germany",
    "location": {
      "coordinates": { "lat": 52.53541999999999, "lng": 13.4165802 }
    }
  },
  {
    "name": "Eisdiele-Cuffaro",
    "address": "Kollwitzstraße 66, 10435 Berlin, Germany",
    "location": {
      "coordinates": { "lat": 52.5360753, "lng": 13.4182779 }
    }
  },
  {
    "name": "Rosa Canina",
    "address": "Hufelandstraße 7, 10407 Berlin, Germany",
    "location": {
      "coordinates": { "lat": 52.5326606, "lng": 13.4307422 }
    }
  },
  {
    "name": "Giovanni L",
    "address": "10178, Grunerstraße 20, 10179 Berlin, Germany",
    "location": {
      "coordinates": { "lat": 52.5197133, "lng": 13.4153336 }
    }
  },
  {
    "name": "Zuckerschlösschen | Softeis | soft ice cream | süsse Souvenirs | Sweet Souvenirs | Alexanderplatz | Berlin Mitte",
    "address": "Rathausstraße 5, 10178 Berlin, Germany",
    "location": {
      "coordinates": { "lat": 52.519998, "lng": 13.411164 }
    }
  },
  {
    "name": "Süßfein Rykestraße",
    "address": "Rykestraße 50, 10405 Berlin, Germany",
    "location": {
      "coordinates": { "lat": 52.5355109, "lng": 13.4194793 }
    }
  },
  {
    "name": "Berliner Eismanufaktur",
    "address": "Sredzkistraße 63-65, 10405 Berlin, Germany",
    "location": {
      "coordinates": { "lat": 52.5376157, "lng": 13.4221967 }
    }
  },
  {
    "name": "Eispatisserie Hokey Pokey",
    "address": "Stargarder Str. 72, 10437 Berlin, Germany",
    "location": {
      "coordinates": { "lat": 52.54687269999999, "lng": 13.4176744 }
    }
  },
  {
    "name": "KAVLAK Eismanufaktur (Kreuzberg)",
    "address": "Oranienstraße 99, 10969 Berlin, Germany",
    "location": {
      "coordinates": { "lat": 52.5069082, "lng": 13.3984796 }
    }
  },
  {
    "name": "Black Coffee",
    "address": "Schwartzkopffstraße 19, 10115 Berlin, Germany",
    "location": {
      "coordinates": { "lat": 52.5346205, "lng": 13.37905 }
    }
  },
  {
    "name": "JONES ice cream",
    "address": "Goltzstraße 3, 10781 Berlin, Germany",
    "location": {
      "coordinates": { "lat": 52.490486, "lng": 13.353453 }
    }
  },
  {
    "name": "Fräulein Frost",
    "address": "Friedelstraße 38, 12047 Berlin, Germany",
    "location": {
      "coordinates": { "lat": 52.49236939999999, "lng": 13.4276751 }
    }
  },
  {
    "name": "Eispatisserie Hokey Pokey Pankow",
    "address": "Berliner Str. 49a, 13189 Berlin, Germany",
    "location": {
      "coordinates": { "lat": 52.5594797, "lng": 13.4127411 }
    }
  },
  {
    "name": "Berlin Homemade Icecream",
    "address": "Elßholzstraße 10, 10781 Berlin, Germany",
    "location": {
      "coordinates": { "lat": 52.49263800000001, "lng": 13.356392 }
    }
  },
  {
    "name": "ROYAL EISLADEN",
    "address": "Lenbachstraße 9, 10245 Berlin, Germany",
    "location": {
      "coordinates": { "lat": 52.50521, "lng": 13.46603 }
    }
  },
  {
    "name": "Vanille & Marille",
    "address": "Hagelberger Str. 1, 10965 Berlin, Germany",
    "location": {
      "coordinates": { "lat": 52.4915099, "lng": 13.3863539 }
    }
  },
  {
    "name": "Gelateria Mos Eisley",
    "address": "Herrfurthpl. 6, 12049 Berlin, Germany",
    "location": {
      "coordinates": { "lat": 52.4772438, "lng": 13.4211357 }
    }
  },
  {
    "name": "Eis Henri",
    "address": "Brunnenstraße 97, 13355 Berlin, Germany",
    "location": {
      "coordinates": { "lat": 52.54596919999999, "lng": 13.3903944 }
    }
  },
  {
    "name": "Bio-Eiscafé Caramello",
    "address": "Wühlischstraße 31, 10245 Berlin, Germany",
    "location": {
      "coordinates": { "lat": 52.5098102, "lng": 13.4569953 }
    }
  },
  {
    "name": "Aldemir Eis",
    "address": "Falckensteinstraße 7, 10997 Berlin, Germany",
    "location": {
      "coordinates": { "lat": 52.499229, "lng": 13.4428648 }
    }
  },
  {
    "name": "Ice cream parlor at Gleisdreieck",
    "address": "Flottwellstraße 14, 10785 Berlin, Germany",
    "location": {
      "coordinates": { "lat": 52.5008123, "lng": 13.3707331 }
    }
  },
  {
    "name": "Eismanufaktur Berlin",
    "address": "Maxstraße 11, 13347 Berlin, Germany",
    "location": {
      "coordinates": { "lat": 52.55007999999999, "lng": 13.36402 }
    }
  },
  {
    "name": "Eis Toto",
    "address": "Schönwalder Str. 30, 13347 Berlin, Germany",
    "location": {
      "coordinates": { "lat": 52.54227119999999, "lng": 13.3750472 }
    }
  },
  {
    "name": "Süße Sünde",
    "address": "Niederbarnimstraße 21, 10247 Berlin, Germany",
    "location": {
      "coordinates": { "lat": 52.5139149, "lng": 13.459341 }
    }
  },
  {
    "name": "Italian ice cream",
    "address": "Brunnenstraße 197-198, 10119 Berlin, Germany",
    "location": {
      "coordinates": { "lat": 52.52980720000001, "lng": 13.4007973 }
    }
  },
  {
    "name": "CANAL Artisanal Ice cream & pastry",
    "address": "Rosenthaler Str. 40, 10178 Berlin, Germany",
    "location": {
      "coordinates": { "lat": 52.52401589999999, "lng": 13.4023943 }
    }
  },
  {
    "name": "Eis*Bar",
    "address": "Kastanienallee 10, 10435 Berlin, Germany",
    "location": {
      "coordinates": { "lat": 52.5394575, "lng": 13.4102674 }
    }
  },
  {
    "name": "Duo - Sicilian Ice Cream",
    "address": "Skalitzer Str. 82, 10997 Berlin, Germany",
    "location": {
      "coordinates": { "lat": 52.5006767, "lng": 13.4388173 }
    }
  },
  {
    "name": "Al Teatro Eiscafé",
    "address": "Bahnhof Friedrichstraße, Friedrichstraße 142, 10117 Berlin, Germany",
    "location": {
      "coordinates": { "lat": 52.5203071, "lng": 13.3866229 }
    }
  },
  {
    "name": "YES EIS",
    "address": "Fehrbelliner Str. 83, 10119 Berlin, Germany",
    "location": {
      "coordinates": { "lat": 52.5322847, "lng": 13.4057729 }
    }
  },
  {
    "name": "Eismanufaktur Berlin",
    "address": "Auguststraße 63, 10117 Berlin, Germany",
    "location": {
      "coordinates": { "lat": 52.52726999999999, "lng": 13.396824 }
    }
  },
  {
    "name": "Nice - Eiszeit",
    "address": "Leipziger Pl. 12, 10117 Berlin, Germany",
    "location": {
      "coordinates": { "lat": 52.51063809999999, "lng": 13.3817068 }
    }
  },
  {
    "name": "Rosa Canina",
    "address": "Ackerstraße 174, 10115 Berlin, Germany",
    "location": {
      "coordinates": { "lat": 52.52892929999999, "lng": 13.397458 }
    }
  },
  {
    "name": "Berliner Eismanufaktur",
    "address": "Sredzkistraße 63-65, 10405 Berlin, Germany",
    "location": {
      "coordinates": { "lat": 52.5376157, "lng": 13.4221967 }
    }
  },
  {
    "name": "Zuckerschlösschen | Softeis | soft ice cream | süsse Souvenirs | Sweet Souvenirs | Alexanderplatz | Berlin Mitte",
    "address": "Rathausstraße 5, 10178 Berlin, Germany",
    "location": {
      "coordinates": { "lat": 52.519998, "lng": 13.411164 }
    }
  },
  {
    "name": "Il Gelataio",
    "address": "Am Friedrichshain 5, 10407 Berlin, Germany",
    "location": {
      "coordinates": { "lat": 52.5294527, "lng": 13.434796 }
    }
  },
  {
    "name": "Eis Plansche",
    "address": "Eichendorffstraße 13, 10115 Berlin, Germany",
    "location": {
      "coordinates": { "lat": 52.53110969999999, "lng": 13.3868418 }
    }
  },
  {
    "name": "Eismieze Berlin",
    "address": "Schlegelstraße 21, 10115 Berlin, Germany",
    "location": {
      "coordinates": { "lat": 52.5304326, "lng": 13.3871112 }
    }
  },
  {
    "name": "Gianni Eis",
    "address": "Rykestraße 26, 10405 Berlin, Germany",
    "location": {
      "coordinates": { "lat": 52.538617, "lng": 13.4226255 }
    }
  },
  {
    "name": "cookies and cream",
    "address": "Kremmener Str. 8, 10435 Berlin, Germany",
    "location": {
      "coordinates": { "lat": 52.5393733, "lng": 13.4024359 }
    }
  },
  {
    "name": "Eiscafe am Park",
    "address": "ehem. \"Zur alten Gaslaterne, Lilli-Henoch-Straße 19, 10405 Berlin, Germany",
    "location": {
      "coordinates": { "lat": 52.5401444, "lng": 13.4333554 }
    }
  },
  {
    "name": "Hokey Pokey Boutique",
    "address": "Stargarder Str. 73, 10437 Berlin, Germany",
    "location": {
      "coordinates": { "lat": 52.5469818, "lng": 13.4174335 }
    }
  },
  {
    "name": "Delabuu Ice Cream",
    "address": "Krossener Str. 15, 10245 Berlin, Germany",
    "location": {
      "coordinates": { "lat": 52.5106054, "lng": 13.4571422 }
    }
  },
  {
    "name": "Al Teatro",
    "address": "Am Ostbahnhof 9, 10243 Berlin, Germany",
    "location": {
      "coordinates": { "lat": 52.50991029999999, "lng": 13.4342941 }
    }
  }
]
